[
  {"lat": 27.691902, "lng": 85.3478009, "profilePicture": "65d22acef8ef2d31e51c05d41dac076af9025ad0.jpg", "id": "65d22acef8ef2d31e51c05d41dac076af9025ad0", "name": "Shantinagar Futsal"},
  {"lat": 27.692938, "lng": 85.3302169, "profilePicture": "dc1b686b6df461e895b033e5f4e0b4b2be5b2028.jpg", "id": "dc1b686b6df461e895b033e5f4e0b4b2be5b2028", "name": "Royal Futsal"},
  {"lat": 27.7165057, "lng": 85.3134298, "profilePicture": "b7b07ed98e3822cd28e802fd9a34fbe51cd29a59.jpg", "id": "b7b07ed98e3822cd28e802fd9a34fbe51cd29a59", "name": "Futsal Arena"},
  {"lat": 27.6815875, "lng": 85.306601, "profilePicture": "d087c89d227317e2693a62f8d0e252d1ad5c0379.jpg", "id": "d087c89d227317e2693a62f8d0e252d1ad5c0379", "name": "Prismatic Futsal & Recreation Center"},
  {"lat": 27.7020369, "lng": 85.34346149999999, "profilePicture": "caef431c22aceddaeb3789f8afa781cb8ad9c492.jpg", "id": "caef431c22aceddaeb3789f8afa781cb8ad9c492", "name": "Maidan Futsal"},
  {"lat": 27.6803984, "lng": 85.3050064, "profilePicture": "cbd62e4fb5926062f81da0d43175a1295a9f12c3.jpg", "id": "cbd62e4fb5926062f81da0d43175a1295a9f12c3", "name": "ARM Futsal"},
  {"lat": 27.6859935, "lng": 85.30227990000002, "profilePicture": "bf7448e163175d400e9cf8aa696a04fd0a07b7b2.jpg", "id": "bf7448e163175d400e9cf8aa696a04fd0a07b7b2", "name": "Field Futsal"},
  {"lat": 27.6826021, "lng": 85.3323243, "profilePicture": "ea368fa73968fb2bb42ba01735b15024f5ce36b2.jpg", "id": "ea368fa73968fb2bb42ba01735b15024f5ce36b2", "name": "Shankhamul Futsal"},
  {"lat": 27.6508847, "lng": 85.3309259, "profilePicture": "ae601f4d1c4aaa19095b45a7a701eea40069dfb6.jpg", "id": "ae601f4d1c4aaa19095b45a7a701eea40069dfb6", "name": "Hattiban Futsal Headquarter"},
  {"lat": 27.711626, "lng": 85.36761, "profilePicture": "8bd5a6e79342e60a08764a4db6f3fd299c32f49d.jpg", "id": "8bd5a6e79342e60a08764a4db6f3fd299c32f49d", "name": "Highway Futsal"},
  {"lat": 27.7330432, "lng": 85.315077, "profilePicture": "f1d0de4fb9ea9483b1e3e0963e0980d17bca21b3.jpg", "id": "f1d0de4fb9ea9483b1e3e0963e0980d17bca21b3", "name": "Manang Marshyangdi Futsal"},
  {"lat": 27.7004122, "lng": 85.2964622, "profilePicture": "19d27bd700bc80f8ada1753521103c97cbcf2140.jpg", "id": "19d27bd700bc80f8ada1753521103c97cbcf2140", "name": "Tahachal Futsal Arena"},
  {"lat": 27.7034343, "lng": 85.33686759999999, "profilePicture": "8901d29ad52e71f87c3eb31c6429f371d1f8598e.jpg", "id": "8901d29ad52e71f87c3eb31c6429f371d1f8598e", "name": "Maitidevi Futsal"},
  {"lat": 27.7494506, "lng": 85.3441361, "profilePicture": "c961f033f578c8e9dca328f07a7461a5d0dccb11.jpg", "id": "c961f033f578c8e9dca328f07a7461a5d0dccb11", "name": "Chaur Recreational Center"},
  {"lat": 27.6964585, "lng": 85.27840730000001, "profilePicture": "7d133ccd2549b1847cce090b09cee22c3a25880c.jpg", "id": "7d133ccd2549b1847cce090b09cee22c3a25880c", "name": "Hamro Futsal, Syuchatar"},
  {"lat": 27.689766, "lng": 85.27113899999999, "profilePicture": "9a2704532a7f80f814c72ae9a0ee16a76655fb81.jpg", "id": "9a2704532a7f80f814c72ae9a0ee16a76655fb81", "name": "Adarsha Futsal Arena"},
  {"lat": 27.7346944, "lng": 85.3205682, "profilePicture": "95c8ec436ef2f06aa3ee5c56cb03abc91a128371.jpg", "id": "95c8ec436ef2f06aa3ee5c56cb03abc91a128371", "name": "samakhushi futsal"},
  {"lat": 27.7545338, "lng": 85.3294969, "profilePicture": "4fe1699b3c9eaf6a5d9a39b204425293f86763bf.jpg", "id": "4fe1699b3c9eaf6a5d9a39b204425293f86763bf", "name": "Grande Futsal"},
  {"lat": 27.7181389, "lng": 85.2875552, "profilePicture": "02833eaa4fc2441c5a1a48954901515e516db60d.jpg", "id": "02833eaa4fc2441c5a1a48954901515e516db60d", "name": "Futsal Factory"},
  {"lat": 27.6712586, "lng": 85.44077879999999, "profilePicture": "edb86a2a9beee5cc43f58208767057862866710a.jpg", "id": "edb86a2a9beee5cc43f58208767057862866710a", "name": "Khwopa Futsal Pvt. Ltd"},
  {"lat": 27.7141511, "lng": 85.3081596, "profilePicture": "32e685cc320d466db6aa41a97d23f32b38e08066.jpg", "id": "32e685cc320d466db6aa41a97d23f32b38e08066", "name": "Kumari Futsal"},
  {"lat": 27.7318592, "lng": 85.3350699, "profilePicture": "fd2917e27548f0f2764bda25100d00515c143f7e.jpg", "id": "fd2917e27548f0f2764bda25100d00515c143f7e", "name": "Dhuku Futsal Hub Pvt Ltd"},
  {"lat": 27.7315598, "lng": 85.3455154, "profilePicture": "5cb7b69bce59e05892923ff092b430938174be17.jpg", "id": "5cb7b69bce59e05892923ff092b430938174be17", "name": "Surya Futsal"},
  {"lat": 27.6317393, "lng": 85.51251160000001, "profilePicture": "4ad98028a10018f9cf8f15a0f83880a347cf59b9.jpg", "id": "4ad98028a10018f9cf8f15a0f83880a347cf59b9", "name": "Banepa Futsal"},
  {"lat": 27.6734498, "lng": 85.36652149999999, "profilePicture": "605c4d0543c091ebcfa9759f1d6e41e00f26be78.jpg", "id": "605c4d0543c091ebcfa9759f1d6e41e00f26be78", "name": "Imperial Rulz Futsal"},
  {"lat": 27.7300468, "lng": 85.3136883, "profilePicture": "34a5d8a57ecbeb9d4f0c84c528facc8c0c752f5c.jpg", "id": "34a5d8a57ecbeb9d4f0c84c528facc8c0c752f5c", "name": "Star Futsal"},
  {"lat": 27.6392739, "lng": 85.3386513, "profilePicture": "7bbd71936298633b8fbe8e9c7e941bdfe76d45b9.jpg", "id": "7bbd71936298633b8fbe8e9c7e941bdfe76d45b9", "name": "Harisiddhi Futsal"},
  {"lat": 27.6759962, "lng": 85.3011185, "profilePicture": "24ccf24be8e64b884a68a211bf1f0708115ff945.jpg", "id": "24ccf24be8e64b884a68a211bf1f0708115ff945", "name": "Sunrise S.A.S Futsal, Lalitpur, Nepal"},
  {"lat": 27.7199191, "lng": 85.3408635, "profilePicture": "54b6f8e08266b8cde6e40e758d734e1625bec30f.jpg", "id": "54b6f8e08266b8cde6e40e758d734e1625bec30f", "name": "Dhanyantari Futsal"},
  {"lat": 27.678342, "lng": 85.335769, "profilePicture": "2601a914be4a6ee56c7aa9b665706b0f436c621f.jpg", "id": "2601a914be4a6ee56c7aa9b665706b0f436c621f", "name": "Hardik Futsal Club 2"},
  {"lat": 27.6612939, "lng": 85.3194591, "profilePicture": "6dc3f98fbdfc99ab1563047f8a3b14b7c739a1e3.jpg", "id": "6dc3f98fbdfc99ab1563047f8a3b14b7c739a1e3", "name": "The best futsal pvt. Ltd."},
  {"lat": 27.695358, "lng": 85.3363519, "profilePicture": "dd8cee4c79cc9146f6546b47790dd3854890533e.jpg", "id": "dd8cee4c79cc9146f6546b47790dd3854890533e", "name": "Baneshwor Futsal & Recreation Center"},
  {"lat": 27.690558, "lng": 85.36867199999999, "profilePicture": "237999b5e4a6253b9b011df82641fa866d02aa7a.jpg", "id": "237999b5e4a6253b9b011df82641fa866d02aa7a", "name": "BG Brothers Health Club Pvt. Ltd (THE FUTSAL)"},
  {"lat": 27.6782764, "lng": 85.3062844, "profilePicture": "9a4f6912698b0a4f5b244bc8ed452e13438b89e3.jpg", "id": "9a4f6912698b0a4f5b244bc8ed452e13438b89e3", "name": "Kathmandu Futsal"},
  {"lat": 27.7248696, "lng": 85.3281739, "profilePicture": "0f28973db50d65984548cbd68b4fda33b8b990a7.jpg", "id": "0f28973db50d65984548cbd68b4fda33b8b990a7", "name": "X-cel Futsal"},
  {"lat": 27.702567, "lng": 85.2884383, "profilePicture": "4e8b8fa67a4c55c2085bb25aa340f769f1d055f9.jpg", "id": "4e8b8fa67a4c55c2085bb25aa340f769f1d055f9", "name": "Mates Futsal"},
  {"lat": 27.735436, "lng": 85.349528, "profilePicture": "9d3bb9a4d8cd826f543f6f0013d9d67ac8c4d6a1.jpg", "id": "9d3bb9a4d8cd826f543f6f0013d9d67ac8c4d6a1", "name": "rave futsal center, sukedhara , mandikhatar"},
  {"lat": 27.7236563, "lng": 85.3582844, "profilePicture": "b2c3e6f9b86957cb14657e1b0cbccc6cf77a11cd.jpg", "id": "b2c3e6f9b86957cb14657e1b0cbccc6cf77a11cd", "name": "Sherpa Futsal Center"},
  {"lat": 27.7009294, "lng": 85.28267459999999, "profilePicture": "7fed11099a5927d84bc19ba6cc622b0754a3c96b.jpg", "id": "7fed11099a5927d84bc19ba6cc622b0754a3c96b", "name": "United Futsal"},
  {"lat": 27.6622445, "lng": 85.4235211, "profilePicture": "da3b85efa4c5c46ec88b5a1a704a5d049c4ac78b.jpg", "id": "da3b85efa4c5c46ec88b5a1a704a5d049c4ac78b", "name": "Khwopa Futsal"},
  {"lat": 27.655049, "lng": 85.3054679, "profilePicture": "5f6370850b038bcfdaf0cdfdaeebc5abf75be930.jpg", "id": "5f6370850b038bcfdaf0cdfdaeebc5abf75be930", "name": "Rajani Futsal"},
  {"lat": 27.669269, "lng": 85.41009400000002, "profilePicture": "0b8da5c6441cbb8e86d24781f5c5f7b4bb806c33.jpg", "id": "0b8da5c6441cbb8e86d24781f5c5f7b4bb806c33", "name": "Bhaktapur Futsal"},
  {"lat": 27.73432949999999, "lng": 85.34535869999999, "profilePicture": "c1df521f7d0f33a4ea0af1e66f267658b810e369.jpg", "id": "c1df521f7d0f33a4ea0af1e66f267658b810e369", "name": "Grassroots Recreational Center"},
  {"lat": 27.6897971, "lng": 85.3038962, "profilePicture": "b7d79ac37074a50df1714a9f87bfabffbd4b6e05.jpg", "id": "b7d79ac37074a50df1714a9f87bfabffbd4b6e05", "name": "Lalitpur 5A Side Indoor Football Ground"},
  {"lat": 27.712726, "lng": 85.300411, "profilePicture": "b9c1aeb61e0cd7838cdf23606de641e5143aa9a0.jpg", "id": "b9c1aeb61e0cd7838cdf23606de641e5143aa9a0", "name": "VAJRA RECREATION CENTER PVT. LTD"},
  {"lat": 27.7069611, "lng": 85.3386074, "profilePicture": "2e56950e4f5b692c06f79506860c127c38618578.jpg", "id": "2e56950e4f5b692c06f79506860c127c38618578", "name": "Velocity Arena"},
  {"lat": 27.6858867, "lng": 85.3023923, "profilePicture": "52a452a18044a261fb9740b6b1af5ade6555ba46.jpg", "id": "52a452a18044a261fb9740b6b1af5ade6555ba46", "name": "The Target Arena"},
  {"lat": 27.6665039, "lng": 85.42669149999999, "profilePicture": "3fea0ca27a00d23c70cd02362e2b12ec6bf9e778.jpg", "id": "3fea0ca27a00d23c70cd02362e2b12ec6bf9e778", "name": "Shooters Futsal"},
  {"lat": 27.7225843, "lng": 85.2793755, "profilePicture": "3ba8181427c3dabfae8a14ea252a7b89d84b2887.jpg", "id": "3ba8181427c3dabfae8a14ea252a7b89d84b2887", "name": "Futsal Park"},
  {"lat": 27.695077, "lng": 85.314829, "profilePicture": "0c51dd4e81a6ac73e042bba92119e25663cbb46f.jpg", "id": "0c51dd4e81a6ac73e042bba92119e25663cbb46f", "name": "Dasharath Rangasala Stadium"},
  {"lat": 27.6874661, "lng": 85.33551250000001, "profilePicture": "8fab5aff89c42cc9dc55c18b50919d02d7fd7bbd.jpg", "id": "8fab5aff89c42cc9dc55c18b50919d02d7fd7bbd", "name": "Sports Universe"},
  {"lat": 27.72485799999999, "lng": 85.370076, "profilePicture": "b96a4dab52129de5faca0fef254ddb5d9dce664a.jpg", "id": "b96a4dab52129de5faca0fef254ddb5d9dce664a", "name": "Green Fustal"},
  {"lat": 27.689301, "lng": 85.32254999999999, "profilePicture": "6eafcb74a1cab4fb49b81fb1321652075583d188.jpg", "id": "6eafcb74a1cab4fb49b81fb1321652075583d188", "name": "The British College, Kathmandu"}
]
